{
   "type": "FeatureCollection",
   "features": [
  {
    "type": "Feature",
    "geometry": {
       "type": "Point",
       "coordinates":  [ -71.078785,42.395546 ]
    },
    "properties": {
    "Address":"100 Foley St",
    "City":"Somerville",
    "State":"MA",
    "Zip":"02145",
    "Name":"Muse Paintbar"
    }
  },
  {
    "type": "Feature",
    "geometry": {
       "type": "Point",
       "coordinates":  [ -71.126728,42.40319 ]
    },
    "properties": {
    "Address":"1127 Broadway",
    "City":"Somerville",
    "State":"MA",
    "Zip":"02144",
    "Name":"Masala"
    }
  },
  {
    "type": "Feature",
    "geometry": {
       "type": "Point",
       "coordinates":  [ -71.127182,42.403274 ]
    },
    "properties": {
    "Address":"1137 Broadway",
    "City":"Somerville",
    "State":"MA",
    "Zip":"02144",
    "Name":"West 7 Bistro"
    }
  },
  {
    "type": "Feature",
    "geometry": {
       "type": "Point",
       "coordinates":  [ -71.127338,42.403479 ]
    },
    "properties": {
    "Address":"1153 Broadway",
    "City":"Somerville",
    "State":"MA",
    "Zip":"02143",
    "Name":"True Bistro"
    }
  },
  {
    "type": "Feature",
    "geometry": {
       "type": "Point",
       "coordinates":  [ -71.106281,42.378011 ]
    },
    "properties": {
    "Address":"118 Beacon St",
    "City":"Somerville",
    "State":"MA",
    "Zip":"02143",
    "Name":"Bergamot, LLC"
    }
  },
  {
    "type": "Feature",
    "geometry": {
       "type": "Point",
       "coordinates":  [ -71.084252,42.387581 ]
    },
    "properties": {
    "Address":"118-120 Broadway",
    "City":"Somerville",
    "State":"MA",
    "Zip":"02145",
    "Name":"East End Grill"
    }
  },
  {
    "type": "Feature",
    "geometry": {
       "type": "Point",
       "coordinates":  [ -71.08696,42.380769 ]
    },
    "properties": {
    "Address":"120 Washington St",
    "City":"Somerville",
    "State":"MA",
    "Zip":"02143",
    "Name":"Oliveira's Steak House"
    }
  },
  {
    "type": "Feature",
    "geometry": {
       "type": "Point",
       "coordinates":  [ -71.084559,42.387863 ]
    },
    "properties": {
    "Address":"124 Broadway",
    "City":"Somerville",
    "State":"MA",
    "Zip":"02145",
    "Name":"La Brasa"
    }
  },
  {
    "type": "Feature",
    "geometry": {
       "type": "Point",
       "coordinates":  [ -71.121369,42.396839 ]
    },
    "properties": {
    "Address":"13 Elm St",
    "City":"Somerville",
    "State":"MA",
    "Zip":"02144",
    "Name":"Aguacate Verde"
    }
  },
  {
    "type": "Feature",
    "geometry": {
       "type": "Point",
       "coordinates":  [ -71.08053,42.393024 ]
    },
    "properties": {
    "Address":"130R Foley St",
    "City":"Somerville",
    "State":"MA",
    "Zip":"02143",
    "Name":"Winter Hill Yacht Club, Inc"
    }
  },
  {
    "type": "Feature",
    "geometry": {
       "type": "Point",
       "coordinates":  [ -71.117521,42.400527 ]
    },
    "properties": {
    "Address":"132 College Ave",
    "City":"Somerville",
    "State":"MA",
    "Zip":"02144",
    "Name":"Yoshi's"
    }
  },
  {
    "type": "Feature",
    "geometry": {
       "type": "Point",
       "coordinates":  [ -71.078189,42.386009 ]
    },
    "properties": {
    "Address":"14 Broadway",
    "City":"Somerville",
    "State":"MA",
    "Zip":"02145",
    "Name":"Mt. Vernon Restaurant"
    }
  },
  {
    "type": "Feature",
    "geometry": {
       "type": "Point",
       "coordinates":  [ -71.105669,42.381783 ]
    },
    "properties": {
    "Address":"14 Tyler St",
    "City":"Somerville",
    "State":"MA",
    "Zip":"02143",
    "Name":"Aeronaut Brewing Co."
    }
  },
  {
    "type": "Feature",
    "geometry": {
       "type": "Point",
       "coordinates":  [ -71.105669,42.381783 ]
    },
    "properties": {
    "Address":"14 Tyler St",
    "City":"Somerville",
    "State":"MA",
    "Zip":"02143",
    "Name":"Tasting Counter"
    }
  },
  {
    "type": "Feature",
    "geometry": {
       "type": "Point",
       "coordinates":  [ -71.084839,42.388405 ]
    },
    "properties": {
    "Address":"145-147 Broadway",
    "City":"Somerville",
    "State":"MA",
    "Zip":"02145",
    "Name":"Fasika"
    }
  },
  {
    "type": "Feature",
    "geometry": {
       "type": "Point",
       "coordinates":  [ -71.11098,42.398853 ]
    },
    "properties": {
    "Address":"148-150 Highland Ave",
    "City":"Somerville",
    "State":"MA",
    "Zip":"02144",
    "Name":"Highland Kitchen"
    }
  },
  {
    "type": "Feature",
    "geometry": {
       "type": "Point",
       "coordinates":  [ -71.089273,42.374817 ]
    },
    "properties": {
    "Address":"15 Ward St",
    "City":"Somerville",
    "State":"MA",
    "Zip":"02143",
    "Name":"Somerville Brewing Company Inc."
    }
  },
  {
    "type": "Feature",
    "geometry": {
       "type": "Point",
       "coordinates":  [ -71.103866,42.388224 ]
    },
    "properties": {
    "Address":"156 Highland Ave",
    "City":"Somerville",
    "State":"MA",
    "Zip":"02143",
    "Name":"Cuisine en Locale"
    }
  },
  {
    "type": "Feature",
    "geometry": {
       "type": "Point",
       "coordinates":  [ -71.090073,42.380313 ]
    },
    "properties": {
    "Address":"157 Washington St",
    "City":"Somerville",
    "State":"MA",
    "Zip":"02143",
    "Name":"J & J Restaurant"
    }
  },
  {
    "type": "Feature",
    "geometry": {
       "type": "Point",
       "coordinates":  [ -71.111369,42.399246 ]
    },
    "properties": {
    "Address":"158 Boston Ave",
    "City":"Somerville",
    "State":"MA",
    "Zip":"02144",
    "Name":"Pescatore Ristorant"
    }
  },
  {
    "type": "Feature",
    "geometry": {
       "type": "Point",
       "coordinates":  [ -71.122948,42.397354 ]
    },
    "properties": {
    "Address":"17-27 Holland St",
    "City":"Somerville",
    "State":"MA",
    "Zip":"02144",
    "Name":"Johnny D's Uptown Lounge"
    }
  },
  {
    "type": "Feature",
    "geometry": {
       "type": "Point",
       "coordinates":  [ -71.086253,42.389083 ]
    },
    "properties": {
    "Address":"171-173 Broadway",
    "City":"Somerville",
    "State":"MA",
    "Zip":"02143",
    "Name":"Codder's "
    }
  },
  {
    "type": "Feature",
    "geometry": {
       "type": "Point",
       "coordinates":  [ -71.120267,42.393084 ]
    },
    "properties": {
    "Address":"187 Elm St",
    "City":"Somerville",
    "State":"MA",
    "Zip":"02144",
    "Name":"Pizzeria Posto"
    }
  },
  {
    "type": "Feature",
    "geometry": {
       "type": "Point",
       "coordinates":  [ -71.105992,42.389688 ]
    },
    "properties": {
    "Address":"191 Highland Ave",
    "City":"Somerville",
    "State":"MA",
    "Zip":"02143",
    "Name":"Arts at the Armory"
    }
  },
  {
    "type": "Feature",
    "geometry": {
       "type": "Point",
       "coordinates":  [ -71.084286,42.393842 ]
    },
    "properties": {
    "Address":"20 Cummings St",
    "City":"Somerville",
    "State":"MA",
    "Zip":"02145",
    "Name":"99 Restaurant & Pub "
    }
  },
  {
    "type": "Feature",
    "geometry": {
       "type": "Point",
       "coordinates":  [ -71.080766,42.380857 ]
    },
    "properties": {
    "Address":"20 Innerbelt Rd",
    "City":"Somerville",
    "State":"MA",
    "Zip":"02143",
    "Name":"Somerville City Club"
    }
  },
  {
    "type": "Feature",
    "geometry": {
       "type": "Point",
       "coordinates":  [ -71.090832,42.378163 ]
    },
    "properties": {
    "Address":"203 Ave",
    "City":"Somerville",
    "State":"MA",
    "Zip":"02143",
    "Name":"Somerville Sports Club"
    }
  },
  {
    "type": "Feature",
    "geometry": {
       "type": "Point",
       "coordinates":  [ -71.126926,42.402077 ]
    },
    "properties": {
    "Address":"212 Holland St",
    "City":"Somerville",
    "State":"MA",
    "Zip":"02144",
    "Name":"Sabur"
    }
  },
  {
    "type": "Feature",
    "geometry": {
       "type": "Point",
       "coordinates":  [ -71.120944,42.394568 ]
    },
    "properties": {
    "Address":"215 Elm St ",
    "City":"Somerville",
    "State":"MA",
    "Zip":"02144",
    "Name":"Out of the Blue Restaurant"
    }
  },
  {
    "type": "Feature",
    "geometry": {
       "type": "Point",
       "coordinates":  [ -71.091472,42.377954 ]
    },
    "properties": {
    "Address":"218 Somerville Ave",
    "City":"Somerville",
    "State":"MA",
    "Zip":"02143",
    "Name":"Demosthenes Greek-American Democratic Club"
    }
  },
  {
    "type": "Feature",
    "geometry": {
       "type": "Point",
       "coordinates":  [ -71.121106,42.394586 ]
    },
    "properties": {
    "Address":"219 Elm St",
    "City":"Somerville",
    "State":"MA",
    "Zip":"02144",
    "Name":"Painted Burro"
    }
  },
  {
    "type": "Feature",
    "geometry": {
       "type": "Point",
       "coordinates":  [ -71.097365,42.380843 ]
    },
    "properties": {
    "Address":"22 Bow St",
    "City":"Somerville",
    "State":"MA",
    "Zip":"02143",
    "Name":"Sweet Ginger"
    }
  },
  {
    "type": "Feature",
    "geometry": {
       "type": "Point",
       "coordinates":  [ -71.096804,42.379857 ]
    },
    "properties": {
    "Address":"23 Union Sq",
    "City":"Somerville",
    "State":"MA",
    "Zip":"02144",
    "Name":"India Palace"
    }
  },
  {
    "type": "Feature",
    "geometry": {
       "type": "Point",
       "coordinates":  [ -71.092168,42.37807 ]
    },
    "properties": {
    "Address":"230 Somerville Ave",
    "City":"Somerville",
    "State":"MA",
    "Zip":"02143",
    "Name":"DemApples, LLC"
    }
  },
  {
    "type": "Feature",
    "geometry": {
       "type": "Point",
       "coordinates":  [ -71.092168,42.37807 ]
    },
    "properties": {
    "Address":"230 Somerville Ave",
    "City":"Somerville",
    "State":"MA",
    "Zip":"02143",
    "Name":"Bantam Cider Company"
    }
  },
  {
    "type": "Feature",
    "geometry": {
       "type": "Point",
       "coordinates":  [ -71.126674,42.402723 ]
    },
    "properties": {
    "Address":"237 Holland St",
    "City":"Somerville",
    "State":"MA",
    "Zip":"02144",
    "Name":"Istanbul Lu"
    }
  },
  {
    "type": "Feature",
    "geometry": {
       "type": "Point",
       "coordinates":  [ -71.12148,42.395089 ]
    },
    "properties": {
    "Address":"237A Elm St",
    "City":"Somerville",
    "State":"MA",
    "Zip":"02144",
    "Name":"Sligo Pub"
    }
  },
  {
    "type": "Feature",
    "geometry": {
       "type": "Point",
       "coordinates":  [ -71.126746,42.402775 ]
    },
    "properties": {
    "Address":"239-241 Holland St",
    "City":"Somerville",
    "State":"MA",
    "Zip":"02144",
    "Name":"PJ Ryan's"
    }
  },
  {
    "type": "Feature",
    "geometry": {
       "type": "Point",
       "coordinates":  [ -71.094108,42.379607 ]
    },
    "properties": {
    "Address":"241 Washington St ",
    "City":"Somerville",
    "State":"MA",
    "Zip":"02143",
    "Name":"Restaurant LaMexicana"
    }
  },
  {
    "type": "Feature",
    "geometry": {
       "type": "Point",
       "coordinates":  [ -71.121574,42.395268 ]
    },
    "properties": {
    "Address":"243 Elm St",
    "City":"Somerville",
    "State":"MA",
    "Zip":"02143",
    "Name":"Meju"
    }
  },
  {
    "type": "Feature",
    "geometry": {
       "type": "Point",
       "coordinates":  [ -71.122159,42.395288 ]
    },
    "properties": {
    "Address":"246 Elm St",
    "City":"Somerville",
    "State":"MA",
    "Zip":"02144",
    "Name":"Diva"
    }
  },
  {
    "type": "Feature",
    "geometry": {
       "type": "Point",
       "coordinates":  [ -71.121741,42.39545 ]
    },
    "properties": {
    "Address":"247 Elm St",
    "City":"Somerville",
    "State":"MA",
    "Zip":"02144",
    "Name":"The Burren"
    }
  },
  {
    "type": "Feature",
    "geometry": {
       "type": "Point",
       "coordinates":  [ -71.127234,42.40303 ]
    },
    "properties": {
    "Address":"248-250 Holland St",
    "City":"Somerville",
    "State":"MA",
    "Zip":"02144",
    "Name":"Rudy's Cafe"
    }
  },
  {
    "type": "Feature",
    "geometry": {
       "type": "Point",
       "coordinates":  [ -71.095545,42.38818 ]
    },
    "properties": {
    "Address":"249 Pearl St",
    "City":"Somerville",
    "State":"MA",
    "Zip":"02145",
    "Name":"Sarma"
    }
  },
  {
    "type": "Feature",
    "geometry": {
       "type": "Point",
       "coordinates":  [ -71.097258,42.381573 ]
    },
    "properties": {
    "Address":"25 Bow St",
    "City":"Somerville",
    "State":"MA",
    "Zip":"02143",
    "Name":"Neighborhood Restaurant"
    }
  },
  {
    "type": "Feature",
    "geometry": {
       "type": "Point",
       "coordinates":  [ -71.096827,42.37991 ]
    },
    "properties": {
    "Address":"25 Union Sq",
    "City":"Somerville",
    "State":"MA",
    "Zip":"02143",
    "Name":"Machu Chicken"
    }
  },
  {
    "type": "Feature",
    "geometry": {
       "type": "Point",
       "coordinates":  [ -71.094421,42.379835 ]
    },
    "properties": {
    "Address":"253 Washington St",
    "City":"Somerville",
    "State":"MA",
    "Zip":"02143",
    "Name":"Casa B"
    }
  },
  {
    "type": "Feature",
    "geometry": {
       "type": "Point",
       "coordinates":  [ -71.121757,42.395621 ]
    },
    "properties": {
    "Address":"255 Elm St",
    "City":"Somerville",
    "State":"MA",
    "Zip":"02144",
    "Name":"Davis Sq. Theater Restaurant and Lounge"
    }
  },
  {
    "type": "Feature",
    "geometry": {
       "type": "Point",
       "coordinates":  [ -71.094383,42.379939 ]
    },
    "properties": {
    "Address":"255 Washington St ",
    "City":"Somerville",
    "State":"MA",
    "Zip":"02143",
    "Name":"Bronwyn"
    }
  },
  {
    "type": "Feature",
    "geometry": {
       "type": "Point",
       "coordinates":  [ -71.122284,42.395533 ]
    },
    "properties": {
    "Address":"256 Elm St ",
    "City":"Somerville",
    "State":"MA",
    "Zip":"02144",
    "Name":"The Joshua Tree"
    }
  },
  {
    "type": "Feature",
    "geometry": {
       "type": "Point",
       "coordinates":  [ -71.100505,42.374567 ]
    },
    "properties": {
    "Address":"26 Springfield St",
    "City":"Somerville",
    "State":"MA",
    "Zip":"02143",
    "Name":"Portuguese American Civic League of Cambridge and Somerville"
    }
  },
  {
    "type": "Feature",
    "geometry": {
       "type": "Point",
       "coordinates":  [ -71.112452,42.38302 ]
    },
    "properties": {
    "Address":"282 Beacon St",
    "City":"Somerville",
    "State":"MA",
    "Zip":"02143",
    "Name":"O'Sullivan's"
    }
  },
  {
    "type": "Feature",
    "geometry": {
       "type": "Point",
       "coordinates":  [ -71.089738,42.378615 ]
    },
    "properties": {
    "Address":"282-284 Mcgrath Hwy",
    "City":"Somerville",
    "State":"MA",
    "Zip":"02143",
    "Name":"Nucleo Sportinquista"
    }
  },
  {
    "type": "Feature",
    "geometry": {
       "type": "Point",
       "coordinates":  [ -71.094717,42.378953 ]
    },
    "properties": {
    "Address":"290 Somerville Ave",
    "City":"Somerville",
    "State":"MA",
    "Zip":"02143",
    "Name":"Ebi Sushi"
    }
  },
  {
    "type": "Feature",
    "geometry": {
       "type": "Point",
       "coordinates":  [ -71.101528,42.374534 ]
    },
    "properties": {
    "Address":"3 Beacon St",
    "City":"Somerville",
    "State":"MA",
    "Zip":"02143",
    "Name":"Trina's Starlight Lounge"
    }
  },
  {
    "type": "Feature",
    "geometry": {
       "type": "Point",
       "coordinates":  [ -71.082113,42.381369 ]
    },
    "properties": {
    "Address":"30 Washington St",
    "City":"Somerville",
    "State":"MA",
    "Zip":"02143",
    "Name":"Northeast Motel Associates Limited Partnership"
    }
  },
  {
    "type": "Feature",
    "geometry": {
       "type": "Point",
       "coordinates":  [ -71.080703,42.395886 ]
    },
    "properties": {
    "Address":"301 Great River Rd",
    "City":"Somerville",
    "State":"MA",
    "Zip":"02145",
    "Name":"Legal on the Mystic"
    }
  },
  {
    "type": "Feature",
    "geometry": {
       "type": "Point",
       "coordinates":  [ -71.097383,42.380545 ]
    },
    "properties": {
    "Address":"307 Somerville Ave",
    "City":"Somerville",
    "State":"MA",
    "Zip":"02144",
    "Name":"Restaurant Turistico Mahupicchu"
    }
  },
  {
    "type": "Feature",
    "geometry": {
       "type": "Point",
       "coordinates":  [ -71.079161,42.394225 ]
    },
    "properties": {
    "Address":"320 Canal St",
    "City":"Somerville",
    "State":"MA",
    "Zip":"02145",
    "Name":"Fuji at Assembly, Inc."
    }
  },
  {
    "type": "Feature",
    "geometry": {
       "type": "Point",
       "coordinates":  [ -71.080703,42.395886 ]
    },
    "properties": {
    "Address":"331 Great River Rd",
    "City":"Somerville",
    "State":"MA",
    "Zip":"02145",
    "Name":"Papagayo"
    }
  },
  {
    "type": "Feature",
    "geometry": {
       "type": "Point",
       "coordinates":  [ -71.097997,42.38078 ]
    },
    "properties": {
    "Address":"335 Somerville Ave",
    "City":"Somerville",
    "State":"MA",
    "Zip":"02145",
    "Name":"Sally O'Brien's"
    }
  },
  {
    "type": "Feature",
    "geometry": {
       "type": "Point",
       "coordinates":  [ -71.098525,42.380836 ]
    },
    "properties": {
    "Address":"345-345B Somerville Ave",
    "City":"Somerville",
    "State":"MA",
    "Zip":"02145",
    "Name":"Pappas Sports Lounge & Restaurant"
    }
  },
  {
    "type": "Feature",
    "geometry": {
       "type": "Point",
       "coordinates":  [ -71.099445,42.380978 ]
    },
    "properties": {
    "Address":"366A Somerville Ave",
    "City":"Somerville",
    "State":"MA",
    "Zip":"02143",
    "Name":"Bull McCabe's Pub"
    }
  },
  {
    "type": "Feature",
    "geometry": {
       "type": "Point",
       "coordinates":  [ -71.122303,42.396912 ]
    },
    "properties": {
    "Address":"37 Davis Sq",
    "City":"Somerville",
    "State":"MA",
    "Zip":"02144",
    "Name":"Boston Burger Company"
    }
  },
  {
    "type": "Feature",
    "geometry": {
       "type": "Point",
       "coordinates":  [ -71.120043,42.394014 ]
    },
    "properties": {
    "Address":"371 Summer St",
    "City":"Somerville",
    "State":"MA",
    "Zip":"02143",
    "Name":"Dilboy VFW"
    }
  },
  {
    "type": "Feature",
    "geometry": {
       "type": "Point",
       "coordinates":  [ -71.100055,42.381616 ]
    },
    "properties": {
    "Address":"379 Somerville Ave",
    "City":"Somerville",
    "State":"MA",
    "Zip":"02143",
    "Name":"Thunder Road"
    }
  },
  {
    "type": "Feature",
    "geometry": {
       "type": "Point",
       "coordinates":  [ -71.120801,42.394445 ]
    },
    "properties": {
    "Address":"381 Summer St",
    "City":"Somerville",
    "State":"MA",
    "Zip":"02144",
    "Name":"Rosebud"
    }
  },
  {
    "type": "Feature",
    "geometry": {
       "type": "Point",
       "coordinates":  [ -71.119417,42.3951 ]
    },
    "properties": {
    "Address":"382 Highland Ave",
    "City":"Somerville",
    "State":"MA",
    "Zip":"02144",
    "Name":"Tenoch"
    }
  },
  {
    "type": "Feature",
    "geometry": {
       "type": "Point",
       "coordinates":  [ -71.079302,42.395141 ]
    },
    "properties": {
    "Address":"395 Artisan Way",
    "City":"Somerville",
    "State":"MA",
    "Zip":"02145",
    "Name":"AMC Theatre"
    }
  },
  {
    "type": "Feature",
    "geometry": {
       "type": "Point",
       "coordinates":  [ -71.120862,42.395677 ]
    },
    "properties": {
    "Address":"400 Highland Ave",
    "City":"Somerville",
    "State":"MA",
    "Zip":"02144",
    "Name":"Five Horses Tavern"
    }
  },
  {
    "type": "Feature",
    "geometry": {
       "type": "Point",
       "coordinates":  [ -71.106748,42.378407 ]
    },
    "properties": {
    "Address":"415 Washington St ",
    "City":"Somerville",
    "State":"MA",
    "Zip":"02143",
    "Name":"Dali Restaurant"
    }
  },
  {
    "type": "Feature",
    "geometry": {
       "type": "Point",
       "coordinates":  [ -71.12188,42.396168 ]
    },
    "properties": {
    "Address":"420 Highland Ave",
    "City":"Somerville",
    "State":"MA",
    "Zip":"02144",
    "Name":"Snappy Sushi"
    }
  },
  {
    "type": "Feature",
    "geometry": {
       "type": "Point",
       "coordinates":  [ -71.106912,42.378186 ]
    },
    "properties": {
    "Address":"421-427 Washington St",
    "City":"Somerville",
    "State":"MA",
    "Zip":"02144",
    "Name":"Kirkland Tap & Trotter"
    }
  },
  {
    "type": "Feature",
    "geometry": {
       "type": "Point",
       "coordinates":  [ -71.120032,42.405522 ]
    },
    "properties": {
    "Address":"44 Professors Row",
    "City":"Somerville",
    "State":"MA",
    "Zip":"02143",
    "Name":"44 Professors Row"
    }
  },
  {
    "type": "Feature",
    "geometry": {
       "type": "Point",
       "coordinates":  [ -71.102573,42.382398 ]
    },
    "properties": {
    "Address":"445 Somerville Ave",
    "City":"Somerville",
    "State":"MA",
    "Zip":"02143",
    "Name":"A4"
    }
  },
  {
    "type": "Feature",
    "geometry": {
       "type": "Point",
       "coordinates":  [ -71.123821,42.395746 ]
    },
    "properties": {
    "Address":"45 Day St",
    "City":"Somerville",
    "State":"MA",
    "Zip":"02144",
    "Name":"Flatbread Company at Sacco's Bowl"
    }
  },
  {
    "type": "Feature",
    "geometry": {
       "type": "Point",
       "coordinates":  [ -71.08852,42.374756 ]
    },
    "properties": {
    "Address":"46 Medford St",
    "City":"Somerville",
    "State":"MA",
    "Zip":"02143",
    "Name":"La Hacienda"
    }
  },
  {
    "type": "Feature",
    "geometry": {
       "type": "Point",
       "coordinates":  [ -71.104736,42.397673 ]
    },
    "properties": {
    "Address":"499 Broadway",
    "City":"Somerville",
    "State":"MA",
    "Zip":"02145",
    "Name":"On the Hill Tavern"
    }
  },
  {
    "type": "Feature",
    "geometry": {
       "type": "Point",
       "coordinates":  [ -71.079025,42.39367 ]
    },
    "properties": {
    "Address":"500 Assembly Row",
    "City":"Somerville",
    "State":"MA",
    "Zip":"02145",
    "Name":"Southern Kin Cookhouse & Bar"
    }
  },
  {
    "type": "Feature",
    "geometry": {
       "type": "Point",
       "coordinates":  [ -71.106069,42.383156 ]
    },
    "properties": {
    "Address":"517-520 Somerville Ave",
    "City":"Somerville",
    "State":"MA",
    "Zip":"02143",
    "Name":"China Delight Restaurant and Bar"
    }
  },
  {
    "type": "Feature",
    "geometry": {
       "type": "Point",
       "coordinates":  [ -71.1041,42.396633 ]
    },
    "properties": {
    "Address":"518 Medford St ",
    "City":"Somerville",
    "State":"MA",
    "Zip":"02145",
    "Name":"Olde Magoun's Saloon"
    }
  },
  {
    "type": "Feature",
    "geometry": {
       "type": "Point",
       "coordinates":  [ -71.103821,42.396888 ]
    },
    "properties": {
    "Address":"525-527 Medford St",
    "City":"Somerville",
    "State":"MA",
    "Zip":"02145",
    "Name":"Daddy Jones"
    }
  },
  {
    "type": "Feature",
    "geometry": {
       "type": "Point",
       "coordinates":  [ -71.123074,42.39672 ]
    },
    "properties": {
    "Address":"55 Davis Sq ",
    "City":"Somerville",
    "State":"MA",
    "Zip":"02144",
    "Name":"Somerville Theater"
    }
  },
  {
    "type": "Feature",
    "geometry": {
       "type": "Point",
       "coordinates":  [ -71.12237,42.395232 ]
    },
    "properties": {
    "Address":"55-57 Chester St",
    "City":"Somerville",
    "State":"MA",
    "Zip":"02144",
    "Name":"Redbones"
    }
  },
  {
    "type": "Feature",
    "geometry": {
       "type": "Point",
       "coordinates":  [ -71.090222,42.386592 ]
    },
    "properties": {
    "Address":"561 Mcgrath Hwy",
    "City":"Somerville",
    "State":"MA",
    "Zip":"02145",
    "Name":"Some'Ting Nice Restaurant"
    }
  },
  {
    "type": "Feature",
    "geometry": {
       "type": "Point",
       "coordinates":  [ -71.123695,42.398386 ]
    },
    "properties": {
    "Address":"57-65 Holland St",
    "City":"Somerville",
    "State":"MA",
    "Zip":"02144",
    "Name":"Orleans"
    }
  },
  {
    "type": "Feature",
    "geometry": {
       "type": "Point",
       "coordinates":  [ -71.109575,42.383781 ]
    },
    "properties": {
    "Address":"596-608 Somerville Ave",
    "City":"Somerville",
    "State":"MA",
    "Zip":"02143",
    "Name":"Samba Bar & Grille"
    }
  },
  {
    "type": "Feature",
    "geometry": {
       "type": "Point",
       "coordinates":  [ -71.095596,42.379913 ]
    },
    "properties": {
    "Address":"61 Union Sq",
    "City":"Somerville",
    "State":"MA",
    "Zip":"02143",
    "Name":"El Potro Mexican Grill "
    }
  },
  {
    "type": "Feature",
    "geometry": {
       "type": "Point",
       "coordinates":  [ -71.109393,42.398673 ]
    },
    "properties": {
    "Address":"616 Broadway",
    "City":"Somerville",
    "State":"MA",
    "Zip":"02143",
    "Name":"Disabled American Veterans of WW "
    }
  },
  {
    "type": "Feature",
    "geometry": {
       "type": "Point",
       "coordinates":  [ -71.081124,42.394859 ]
    },
    "properties": {
    "Address":"625 Grand Union Blvd",
    "City":"Somerville",
    "State":"MA",
    "Zip":"02145",
    "Name":"Outback"
    }
  },
  {
    "type": "Feature",
    "geometry": {
       "type": "Point",
       "coordinates":  [ -71.079025,42.39367 ]
    },
    "properties": {
    "Address":"661 Assembly Row",
    "City":"Somerville",
    "State":"MA",
    "Zip":"02145",
    "Name":"River Bar LLC"
    }
  },
  {
    "type": "Feature",
    "geometry": {
       "type": "Point",
       "coordinates":  [ -71.111722,42.399619 ]
    },
    "properties": {
    "Address":"682-686 Broadway",
    "City":"Somerville",
    "State":"MA",
    "Zip":"02144",
    "Name":"The Pub"
    }
  },
  {
    "type": "Feature",
    "geometry": {
       "type": "Point",
       "coordinates":  [ -71.079025,42.39367 ]
    },
    "properties": {
    "Address":"698 Assembly Row",
    "City":"Somerville",
    "State":"MA",
    "Zip":"02145",
    "Name":"Earl's Kitchen & Bar"
    }
  },
  {
    "type": "Feature",
    "geometry": {
       "type": "Point",
       "coordinates":  [ -71.079025,42.39367 ]
    },
    "properties": {
    "Address":"699 Assembly Row",
    "City":"Somerville",
    "State":"MA",
    "Zip":"02145",
    "Name":"Tony C's Sports Bar and Grill"
    }
  },
  {
    "type": "Feature",
    "geometry": {
       "type": "Point",
       "coordinates":  [ -71.122844,42.397125 ]
    },
    "properties": {
    "Address":"7 Holland St",
    "City":"Somerville",
    "State":"MA",
    "Zip":"02144",
    "Name":"Taipei Tokyo"
    }
  },
  {
    "type": "Feature",
    "geometry": {
       "type": "Point",
       "coordinates":  [ -71.095037,42.37998 ]
    },
    "properties": {
    "Address":"70 Union Sq",
    "City":"Somerville",
    "State":"MA",
    "Zip":"02143",
    "Name":"Brass Union"
    }
  },
  {
    "type": "Feature",
    "geometry": {
       "type": "Point",
       "coordinates":  [ -71.104396,42.376424 ]
    },
    "properties": {
    "Address":"70-70B Beacon St",
    "City":"Somerville",
    "State":"MA",
    "Zip":"02143",
    "Name":"The Thirsty Scholar"
    }
  },
  {
    "type": "Feature",
    "geometry": {
       "type": "Point",
       "coordinates":  [ -71.078077,42.389573 ]
    },
    "properties": {
    "Address":"702 Assembly Square Dr",
    "City":"Somerville",
    "State":"MA",
    "Zip":"02145",
    "Name":"Burger Dive"
    }
  },
  {
    "type": "Feature",
    "geometry": {
       "type": "Point",
       "coordinates":  [ -71.112435,42.399765 ]
    },
    "properties": {
    "Address":"704-706 Broadway",
    "City":"Somerville",
    "State":"MA",
    "Zip":"02144",
    "Name":"Soundbites"
    }
  },
  {
    "type": "Feature",
    "geometry": {
       "type": "Point",
       "coordinates":  [ -71.094837,42.379795 ]
    },
    "properties": {
    "Address":"75 Union Sq",
    "City":"Somerville",
    "State":"MA",
    "Zip":"02143",
    "Name":"The Independent"
    }
  },
  {
    "type": "Feature",
    "geometry": {
       "type": "Point",
       "coordinates":  [ -71.081734,42.386785 ]
    },
    "properties": {
    "Address":"76 Broadway ",
    "City":"Somerville",
    "State":"MA",
    "Zip":"02145",
    "Name":"Vinny's"
    }
  },
  {
    "type": "Feature",
    "geometry": {
       "type": "Point",
       "coordinates":  [ -71.099961,42.381427 ]
    },
    "properties": {
    "Address":"79 Bow St",
    "City":"Somerville",
    "State":"MA",
    "Zip":"02143",
    "Name":"Greek American Social Construction Club"
    }
  },
  {
    "type": "Feature",
    "geometry": {
       "type": "Point",
       "coordinates":  [ -71.122046,42.39617 ]
    },
    "properties": {
    "Address":"8-9 Davis Sq ",
    "City":"Somerville",
    "State":"MA",
    "Zip":"02144",
    "Name":"Mike's Restaurant"
    }
  },
  {
    "type": "Feature",
    "geometry": {
       "type": "Point",
       "coordinates":  [ -71.117509,42.400698 ]
    },
    "properties": {
    "Address":"858 Broadway",
    "City":"Somerville",
    "State":"MA",
    "Zip":"02144",
    "Name":"Ty Y Yo"
    }
  },
  {
    "type": "Feature",
    "geometry": {
       "type": "Point",
       "coordinates":  [ -71.124239,42.399013 ]
    },
    "properties": {
    "Address":"89 Holland St",
    "City":"Somerville",
    "State":"MA",
    "Zip":"02144",
    "Name":"Spoke Wine Bar"
    }
  },
  {
    "type": "Feature",
    "geometry": {
       "type": "Point",
       "coordinates":  [ -71.09464,42.379672 ]
    },
    "properties": {
    "Address":"9 Sanborn Ct",
    "City":"Somerville",
    "State":"MA",
    "Zip":"02143",
    "Name":"Journeyman Restaurant"
    }
  },
  {
    "type": "Feature",
    "geometry": {
       "type": "Point",
       "coordinates":  [ -71.085876,42.381569 ]
    },
    "properties": {
    "Address":"97 Washington St ",
    "City":"Somerville",
    "State":"MA",
    "Zip":"02143",
    "Name":"Parise's"
    }
  }
]
}